[
  {
    "id": 1,
    "name": "Флагманский офис госуслуг \"Мои документы\"",
    "address": "Щелковское шоссе, 75",
    "district": "ВАО",
    "lat": 55.8174,
    "lng": 37.7983
  },
  {
    "id": 2,
    "name": "Многофункциональный центр",
    "address": "3-я Парковая улица, 24",
    "district": "ВАО", 
    "lat": 55.7932,
    "lng": 37.7826
  },
  {
    "id": 3,
    "name": "Центр госуслуг \"Мои документы\"",
    "address": "улица Стромынка, 2",
    "district": "ВАО",
    "lat": 55.7943,
    "lng": 37.7125
  },
  {
    "id": 4,
    "name": "Центр госуслуг \"Мои документы\"", 
    "address": "Малая Черкизовская улица, 14",
    "district": "ВАО",
    "lat": 55.8021,
    "lng": 37.7448
  },
  {
    "id": 5,
    "name": "Центр госуслуг \"Мои документы\"",
    "address": "Большая Семёновская улица, 23а",
    "district": "ВАО",
    "lat": 55.7819,
    "lng": 37.7193
  },
  {
    "id": 6,
    "name": "Центр госуслуг \"Мои документы\"",
    "address": "15-я Парковая улица, 40б",
    "district": "ВАО",
    "lat": 55.8067,
    "lng": 37.8312
  },
  {
    "id": 7,
    "name": "Центр госуслуг \"Мои документы\"",
    "address": "3-я Владимирская улица, 9а",
    "district": "ВАО",
    "lat": 55.7885,
    "lng": 37.7684
  },
  {
    "id": 8,
    "name": "Центр госуслуг \"Мои документы\"",
    "address": "Салтыковская улица, 29а",
    "district": "ВАО",
    "lat": 55.7791,
    "lng": 37.7529
  },
  {
    "id": 9,
    "name": "Центр госуслуг \"Мои документы\"",
    "address": "улица Алексея Дикого, 3",
    "district": "ВАО",
    "lat": 55.8156,
    "lng": 37.8127
  },
  {
    "id": 10,
    "name": "Центр госуслуг \"Мои документы\"",
    "address": "Открытое шоссе, 8",
    "district": "ВАО",
    "lat": 55.8243,
    "lng": 37.7654
  },
  {
    "id": 17,
    "name": "Флагманский офис госуслуг \"Мои документы\"",
    "address": "Ярцевская улица, 19",
    "district": "ЗАО",
    "lat": 55.7421,
    "lng": 37.4329
  },
  {
    "id": 18,
    "name": "МФЦ района Кунцево",
    "address": "улица Маршала Неделина, 40",
    "district": "ЗАО",
    "lat": 55.7365,
    "lng": 37.4187
  },
  {
    "id": 19,
    "name": "Центр госуслуг \"Мои документы\"",
    "address": "площадь Киевского вокзала, 2",
    "district": "ЗАО",
    "lat": 55.7438,
    "lng": 37.5671
  },
  {
    "id": 20,
    "name": "Центр госуслуг \"Мои документы\"",
    "address": "Кременчугская улица, 9",
    "district": "ЗАО",
    "lat": 55.7284,
    "lng": 37.4523
  },
  {
    "id": 21,
    "name": "Центр госуслуг \"Мои документы\"",
    "address": "Новозаводская улица, 25, корпус 1",
    "district": "ЗАО",
    "lat": 55.7523,
    "lng": 37.5127
  },
  {
    "id": 22,
    "name": "Центр госуслуг \"Мои документы\"",
    "address": "улица Покрышкина, 4",
    "district": "ЗАО",
    "lat": 55.7198,
    "lng": 37.4876
  },
  {
    "id": 23,
    "name": "Центр госуслуг \"Мои документы\"",
    "address": "Домостроительная улица, 2а",
    "district": "ЗАО",
    "lat": 55.7351,
    "lng": 37.5034
  },
  {
    "id": 92,
    "name": "Центр госуслуг \"Мои документы\"",
    "address": "Большая Декабрьская улица, 13, владение 13",
    "district": "ЦАО",
    "lat": 55.7568,
    "lng": 37.5833
  },
  {
    "id": 93,
    "name": "Центр госуслуг \"Мои документы\"",
    "address": "Якиманский переулок, 6, строение 1",
    "district": "ЦАО",
    "lat": 55.7412,
    "lng": 37.6145
  },
  {
    "id": 94,
    "name": "Центр госуслуг \"Мои документы\"",
    "address": "Настасьинский переулок, 7",
    "district": "ЦАО",
    "lat": 55.7643,
    "lng": 37.6087
  },
  {
    "id": 95,
    "name": "Центр госуслуг \"Мои документы\"",
    "address": "бульвар Энтузиастов, 2",
    "district": "ЦАО",
    "lat": 55.7519,
    "lng": 37.6924
  },
  {
    "id": 96,
    "name": "Центр госуслуг \"Мои документы\"",
    "address": "Смоленский бульвар, 24, строение 1",
    "district": "ЦАО",
    "lat": 55.7486,
    "lng": 37.5821
  },
  {
    "id": 97,
    "name": "Центр госуслуг \"Мои документы\"",
    "address": "улица Бахрушина, 13",
    "district": "ЦАО",
    "lat": 55.7315,
    "lng": 37.6278
  },
  {
    "id": 98,
    "name": "Центр госуслуг \"Мои документы\"",
    "address": "переулок Сивцев Вражек, 20",
    "district": "ЦАО",
    "lat": 55.7492,
    "lng": 37.5934
  },
  {
    "id": 99,
    "name": "Флагманский офис госуслуг \"Мои документы\"",
    "address": "Пресненская набережная, 2",
    "district": "ЦАО",
    "lat": 55.7574,
    "lng": 37.5429
  }
]